X,Y,OBJECTID,NAME,ADDRESS,FACUSE,LEVEL_,STATUS,PHONE,TOTAL_STUD,SSL,GIS_ID,WEB_URL,BLDG_NUM,SCH_PROG,CAPITALGAINS,CAPACITY,YEAR_BUILT,SQUARE_FOOTAGE,POPULATION_PLAN,LONGITUDE,LATITUDE,SCHOOL_YEA,LEA_NAME,LEA_ID,SCHOOL_NAM,SCHOOL_ID,GRADES,MAR_ID,XCOORD,YCOORD,ZIPCODE,PK3,PK4,UN_CE,FACILITY_ID,GLOBALID,CREATOR,CREATED,EDITOR,EDITED
-77.033997515858,38.9846107530876,1,Shepherd Elementary School,7800 14TH STREET NW,Elementary School,ES,Active,202-576-6140,361, ,dcps_313,http://www.shepherd-elementary.org,313,313,N,332,1932,79700,400,-77.03399523,38.98460328,2022-2023,District of Columbia Public Schools,1,Shepherd Elementary School,313,PK3-5th,256319,397054.62,146297.53,20012,32,36,,DGS_0296.0,{7FE4B29A-1DF3-429F-9C91-73A00C400A27},,,JLAY,2022/08/03 14:55:10+00
-77.0227972114971,38.9750503430188,2,Takoma Elementary School,7010 PINEY BRANCH ROAD NW,Elementary School,ES,Active,202-671-6050,468, ,dcps_3241,http://www.takomaec.us/,324,3241,Y,467,1976,119000,450,-77.02279493,38.97504287,2022-2023,District of Columbia Public Schools,1,Takoma Education Campus,324,PK3-8th,250934,398024.76,145235.93,20012,31,44,,DGS_0723.0,{5E091502-FCD3-4968-910A-F8005E3E5FC5},,,JLAY,2022/08/03 14:55:10+00
-77.0195805300924,38.9672920127715,3,Coolidge High School,6315 5TH STREET NW,High School,HS,Active,202-671-6080,346, ,dcps_455,http://www.coolidgeshs.org/,455,455,N,1240,1940,271300,1100,-77.01957835,38.96728457,2022-2023,District of Columbia Public Schools,1,Coolidge High School,455,9th-12th,294615,398303.3,144374.62,20012,,,7,DGS_0710.0,{99647003-C9F1-4CDF-A1AA-27BB371E6A0D},,,JLAY,2022/08/03 14:55:10+00
-77.0195805300924,38.9672920127715,4,Early College Academy at Coolidge High School,6315 5TH STREET NW,High School/Specialized,HS,Active,202-671-6080,547, ,dcps_456,http://www.coolidgeshs.org/,455,455,N,1240,1940,271300,1100,-77.01957835,38.96728457,2022-2023,District of Columbia Public Schools,1,Coolidge High School,455,9th-12th,294615,398303.3,144374.62,20012,,,,DGS_0710.0,{EC958C15-2B28-4E12-9768-2644131CC001},,,JLAY,2022/08/03 14:55:10+00
-77.019270024299,38.9668628214318,5,Ida B. Wells Middle School,405 SHERIDAN STREET NW,Middle School,MS,Active,202-671-0693,,,dcps_974,http://nms.sdmf.schoolfusion.us/,1071,,,,,,,-77.019268,38.966855,2022-2023,District of Columbia Public Schools,1,New North Middle School,1071,6th-8th,319880,398330.22,144326.94,20011,,,,N/A,{37F555C6-F48C-4553-BFB5-BF388EBD70F0},,,JLAY,2022/08/03 14:55:10+00
-77.0680394194031,38.9666350188107,6,Lafayette Elementary School,5701 BROAD BRANCH ROAD NW,Elementary School,ES,Active,202-282-0116,761, ,dcps_261,http://www.lafayettehsa.org,261,261,N,486,1931,113600,550,-77.06803712,38.96662755,2022-2023,District of Columbia Public Schools,1,Lafayette Elementary School,261,PK4-5th,294611,394103.71,144303.7,20015,,100,,DGS_0690.0,{E737D9C1-0603-4A25-B92F-68AFEFE6A536},,,JLAY,2022/08/03 14:55:10+00
-77.0192408841983,38.9658647394466,7,Whittier Elementary School,6201 5TH STREET NW,Elementary School,ES,Active,202-576-6156,341, ,dcps_338,http://www.whittierdc.org/,338,338,Y,517,1926,66600,600,-77.0192386,38.96585727,2022-2023,District of Columbia Public Schools,1,Whittier Education Campus,338,PK3-8th,294614,398332.71,144216.17,20011,28,26,,DGS_0706.0,{C75E506C-B65F-4525-8AA3-D2483CC5E34A},,,JLAY,2022/08/03 14:55:10+00
-77.0306911314805,38.9605431911924,8,Brightwood Elementary School,1300 NICHOLSON STREET NW,Elementary School,ES,Active,202-722-5670,755, ,dcps_213,http://www.brightwoodec.org/,213,213,Y,,,,,-77.03068885,38.96053573,2022-2023,District of Columbia Public Schools,1,Brightwood Education Campus,213,PK3-8th,294515,397340.19,143625.7,20011,39,49,,DGS_0270.0,{11A5F0E5-54BE-4247-8FA5-B72AAAE6455D},,,JLAY,2022/08/03 14:55:10+00
-76.9998848198793,38.9599796093501,9,LaSalle-Backus Elementary School,501 RIGGS ROAD NE,Elementary School,ES,Active,202-671-6340,369, ,dcps_264,http://www.lasallebackus.com/,264,264,N,406,1957,63000,425,-76.99988254,38.95997214,2022-2023,District of Columbia Public Schools,1,LaSalle-Backus Education Campus,264,PK3-8th,294489,400010.18,143562.69,20011,19,29,,DGS_0661.0,{252C3389-FA1E-4426-B22F-2D8E3BF06102},,,JLAY,2022/08/03 14:55:10+00
-77.0250738590133,38.9539761553136,10,Truesdell Elementary School,800 INGRAHAM STREET NW,Elementary School,ES,Active,202-576-6202,679, ,dcps_327,http://profiles.dcps.dc.gov/Truesdell+Education+Campus,327,327,N,471,1908,69600,450,-77.02507158,38.95396869,2022-2023,District of Columbia Public Schools,1,Truesdell Education Campus,327,PK3-8th,294497,397826.84,142896.55,20011,46,59,,DGS_0738.0,{1A917DFC-75C5-4684-BE50-818CA624FC3A},,,JLAY,2022/08/03 14:55:10+00
-77.070081517757,38.9529409849191,11,Murch Elementary School,4810 36TH STREET NW,Elementary School,ES,Active,202-282-0130,572,0803,dcps_287,http://www.murchschool.org,287,287,N,,,,,-77.070079,38.952934,2022-2023,District of Columbia Public Schools,1,Murch Elementary School,287,PK4-5th,294602,393925.57,142783.67,20008,,60,,DGS_0638.0,{1A6CEEC4-20AA-4178-AC72-88BF5D90969F},,,JLAY,2022/08/03 14:55:10+00
-77.0752013665178,38.9529042028224,12,Deal Middle School,3815 FORT DRIVE NW,Middle School,MS,Active,202-939-2010,1477, ,dcps_405,http://alicedeal.org/,405,405,N,900,1931,180000,850,-77.07519907,38.95289674,2022-2023,District of Columbia Public Schools,1,Deal Middle School,405,6th-8th,277548,393481.78,142779.94,20016,,,,DGS_0529.0,{02259729-F41D-4301-954D-127B943D35A3},,,JLAY,2022/08/03 14:55:10+00
-77.0322553407865,38.9513748773787,13,John Lewis Elementary School,1338 FARRAGUT STREET NW,Elementary School,ES,Active,202-576-6226,315, ,dcps_336,http://www.westschool.org/,336,336,N,281,1978,69600,450,-77.03225306,38.95136741,2022-2023,District of Columbia Public Schools,1,West Education Campus,336,PK3-8th,294517,397204.26,142607.98,20011,23,35,,DGS_0179.0,{6CEF89A6-F7C9-4BC4-8EE0-1A727DD4397A},,,JLAY,2022/08/03 14:55:10+00
-77.0777774984722,38.9501636048416,14,Jackson-Reed High School (formerly Wilson HS),3950 CHESAPEAKE STREET NW,High School,HS,Active,202-282-0120,1750,,dcps_463,http://www.wilsonhs.org/,463,463,N,1485,1935,271300,1600,-77.0777757,38.95015672,2022-2023,District of Columbia Public Schools,1,Woodrow Wilson High School,463,9th-12th,294587,393258.18,142475.96,20016,,,5,DGS_0551.0,{E9B7FB68-0E5D-419A-A7DF-6BBFAFE6A760},,,JLAY,2022/08/03 14:55:10+00
-77.0177793604952,38.9482384107505,15,Barnard Elementary School,430 DECATUR STREET NW,Elementary School,ES,Active,202-576-1100,649, ,dcps_205,http://www.myschooldc.org/schools/profile/7/,205,205,N,387,2003,,,-77.01777708,38.94823095,2022-2023,District of Columbia Public Schools,1,Barnard Elementary School,205,PK3-5th,248305,398458.99,142259.46,20011,61,85,,DGS_0605.0,{7DBC656E-2B4A-4DED-A3FB-95426CCF0139},,,JLAY,2022/08/03 14:55:10+00
-77.0809971256341,38.9475578809036,16,Janney Elementary School,4130 ALBEMARLE STREET NW,Elementary School,ES,Active,202-282-0110,722, ,dcps_254,http://www.janneyschool.org/,254,254,N,364,1925,98200,550,-77.08099483,38.94755042,2022-2023,District of Columbia Public Schools,1,Janney Elementary School,254,PK4-5th,285713,392978.88,142186.88,20016,,79,,DGS_0580.0,{AD61EFE9-9733-4FDE-8673-A2389164FE50},,,JLAY,2022/08/03 14:55:10+00
-77.0305435214428,38.9447023725982,17,Dorothy I. Height Elementary School,1300 ALLISON STREET NW,Elementary School,ES,Active,202-723-4100,518,,dcps_977,http://www.dorothyheightes.org/,349,,,,,,,-77.030541,38.9447,2022-2023,District of Columbia Public Schools,1,Dorothy I. Height Elementary School,349,PK3-5th,255251,397352.45,141867.84,20011,52,86,,DGS_0775.0,{8FCE8797-2900-4352-8DBB-514ECC746E3E},,,JLAY,2022/08/03 14:55:10+00
-77.0277786912709,38.9436159783387,18,MacFarland Middle School,4400 IOWA AVENUE NW,Middle School,MS,Active,202-671-6033,69,,dcps_973,http://profiles.dcps.dc.gov/MacFarland+Middle+School,420,,,,,,,-77.02777641,38.94360856,2022-2023,District of Columbia Public Schools,1,MacFarland Middle School,420,6th-7th,294595,397592.04,141746.55,20011,,,,DGS_0613.0,{DB738C9F-A3F6-40B6-A624-A10F40A9BCA3},,,JLAY,2022/08/03 14:55:10+00
-77.0292021703324,38.9430400197737,19,Roosevelt High School,4301 13TH STREET NW,High School,HS,Active,202-576-6130,668, ,dcps_459,http://profiles.dcps.dc.gov/Roosevelt+High+School,459,459,N,1055,1932,331900,1100,-77.029197,38.943029,2022-2023,District of Columbia Public Schools,1,Roosevelt High School,459,9th-12th,252605,397468.88,141682.3,20011,,,7,DGS_0610.0,{3A918A83-879A-47F4-AD6C-CB103DE4C52B},,,JLAY,2022/08/03 14:55:10+00
-77.0292021703324,38.9430400197737,20,Roosevelt STAY High School ,4301 13TH STREET NW,Youth Engagement,STAY,Active,202-576-8399,668, ,dcps_913,http://www.rooseveltstay.org/,456,459A,N,,,,,-77.029197,38.943029,2022-2023,District of Columbia Public Schools,1,Roosevelt High School,456,Adult,252605,397468.88,141682.3,20011,,,7,DGS_0610.0,{18490ACF-C83D-425E-AC92-120113D4772D},,,JLAY,2022/08/03 14:55:10+00
-76.9849976287947,38.942020057392,21,Bunker Hill Elementary School,1401 MICHIGAN AVENUE NE,Elementary School,ES,Active,202-576-6095,195, ,dcps_346,http://profiles.dcps.dc.gov/Bunker+Hill+Elementary+School,219,346,N,,,,,-76.98499564,38.94201247,2022-2023,District of Columbia Public Schools,1,Bunker Hill Elementary School,219,PK3-5th,286131,401300.77,141569.11,20017,23,22,,DGS_0301.0,{86669EB0-2546-45C3-9910-C19FF78D345D},,,JLAY,2022/08/03 14:55:10+00
-77.0312297057863,38.9415418043537,22,Powell Elementary School,1350 UPSHUR STREET NW,Elementary School,ES,Active,202-671-6270,534, ,dcps_300,http://www.powellbilingualelementary.com/,300,300,N,304,1925,38500,325,-77.03122742,38.94153434,2022-2023,District of Columbia Public Schools,1,Powell Elementary School,300,PK3-5th,255302,397292.79,141516.39,20011,50,49,,DGS_0287.0,{5373B976-9385-435B-B2E4-EBEE47AB98A8},,,JLAY,2022/08/03 14:55:10+00
-77.0719575161002,38.9407301065624,23,Hearst Elementary School,3950 37TH STREET NW,Elementary School,ES,Active,202-282-0106,312, ,dcps_258,http://www.hearstes.org/,258,258,N,181,1932,17400,325,-77.07195522,38.94072265,2022-2023,District of Columbia Public Schools,1,Hearst Elementary School,258,PK4-5th,294586,393761.89,141428.28,20008,2,43,,DGS_0550.0,{C60018EB-DA2D-479D-ABC2-A24563E6D7C9},,,JLAY,2022/08/03 14:55:10+00
-76.9910617741642,38.9384831305545,24,Brookland Middle School,1150 MICHIGAN AVENUE NE,Middle School,MS,Active,202-576-6095,254, ,dcps_975,https://brooklandms.wordpress.com/,347,975,N,,,,,-76.991059,38.938476,2022-2023,District of Columbia Public Schools,1,Brookland Middle School,347,6th-8th,294507,400775.13,141176.41,20017,,,,DGS_0235.0,{CEAA4184-ABC9-4275-AED8-4ADF9AD6B5B9},,,JLAY,2022/08/03 14:55:10+00
-77.0264349424483,38.935818665273,25,Raymond Elementary School,915 SPRING ROAD NW,Elementary School,ES,Active,202-576-6236,613, ,dcps_302,http://raymondeducationcampus.org/,302,302,N,,,,,-77.02643266,38.93581121,2022-2023,District of Columbia Public Schools,1,Raymond Education Campus,302,PK3-8th,226682,397708.28,140880.94,20010,43,58,,DGS_0788.0,{0AA28C88-05F3-4849-A8AC-1C99316ACD40},,,JLAY,2022/08/03 14:55:10+00
-77.0211879471977,38.9344215557015,26,Bruce-Monroe Elementary School @ Park View,3560 WARDER STREET NW,Elementary School,ES,Active,202-576-6222,473, ,dcps_296,http://www.bmpv.org/,296,296,N,,1916,82200,,-77.02118567,38.9344141,2022-2023,District of Columbia Public Schools,1,Bruce-Monroe Elementary School @ Park View,296,PK3-5th,294583,398163.16,140725.73,20010,42,57,,DGS_0533.0,{55F4DFCC-AACC-466E-9183-0BFEBAA491E6},,,JLAY,2022/08/03 14:55:10+00
-77.04055575384,38.9343258251977,27,Bancroft Elementary School,1755 NEWTON STREET NW,Elementary School,ES,Active,202-673-7280,530,,dcps_204,http://www.bancroftelementary.org,204,,,,,,,-77.040553,38.934318,2022-2023,District of Columbia Public Schools,1,Bancroft Elementary School,204,PK3-5th,294528,396483.93,140715.67,20010,44,58,,DGS_0343.0,{7CA7F80C-9FEA-4130-BE56-6236142AA76B},,,JLAY,2022/08/03 14:55:10+00
-77.0878284954734,38.9342997626067,28,Mann Elementary School,4430 NEWARK STREET NW,Elementary School,ES,Active,202-282-0126,379, ,dcps_273,http://www.horacemanndc.org/,273,273,N,,,,,-77.08782619,38.93429231,2022-2023,District of Columbia Public Schools,1,Mann Elementary School,273,PK4-5th,294597,392385.28,140715.66,20016,,40,,DGS_0616.0,{D64E6656-727F-423E-B8B5-160539897925},,,JLAY,2022/08/03 14:55:10+00
-76.9784586377381,38.9335101217273,29,Burroughs Elementary School,1820 MONROE STREET NE,Elementary School,ES,Active,202-576-6150,290, ,dcps_220,http://www.jbecstem.com/,220,220,Y,474,1980,63900,450,-76.97845637,38.93350266,2022-2023,District of Columbia Public Schools,1,Burroughs Elementary School,220,PK3-5th,294530,401867.9,140624.56,20018,23,44,,DGS_0356.0,{FAC47C58-444A-4D82-8FAD-14871F1D93F4},,,JLAY,2022/08/03 14:55:10+00
-77.0658234329553,38.9327345302458,30,Eaton Elementary School,3301 LOWELL STREET NW,Elementary School,ES,Active,202-282-0103,477, ,dcps_232,http://www.eatondc.org/,232,232,N,418,1911,49100,400,-77.06582114,38.93272707,2022-2023,District of Columbia Public Schools,1,Eaton Elementary School,232,PK4-5th,294562,394293.04,140540.3,20008,,36,,DGS_0507.0,{BB864E97-0D1E-4E48-A0A7-9A1DDAEA7530},,,JLAY,2022/08/03 14:55:10+00
-76.9923185976602,38.9322838419059,31,Luke C. Moore High School,1001 MONROE STREET NE,Youth Engagement,YE,Active,202-281-3600,266, ,dcps_884,http://profiles.dcps.dc.gov/Luke+C.+Moore+High+School,884,884,N,,,,,-76.99231633,38.93227638,2022-2023,District of Columbia Public Schools,1,Luke C. Moore High School,884,9th-12th,294504,400666.21,140488.24,20017,,,,DGS_0205.0,{A1D70718-6D23-480B-B25C-9790D789BF04},,,JLAY,2022/08/03 14:55:10+00
-77.0358605944281,38.9295522271806,32,Columbia Heights Education Campus 6–8 (CHEC),3101 16TH STREET NW,Education Campus,MS,Active,202-939-7700,1336, ,dcps_475,http://www.checdc.org,442,475,N,,,,,-77.03585831,38.92954477,2022-2023,District of Columbia Public Schools,1,Columbia Heights Education Campus,442,6th-12th,234375,396890.8,140185.59,20010,,,4,DGS_0472.0,{F1F86ED8-5E4E-4523-AAF9-0C161CF81999},,,JLAY,2022/08/03 14:55:10+00
-77.0358605944281,38.9295522271806,33,Columbia Heights Education Campus 9–12 (CHEC),3101 16TH STREET NW,Education Campus,HS,Active,202-939-7700,1336, ,dcps_976,http://www.checdc.org,442,475,N,,,,,-77.03585831,38.92954477,2022-2023,District of Columbia Public Schools,1,Columbia Heights Education Campus,442,6th-12th,234375,396890.8,140185.59,20010,,,4,DGS_0472.0,{9F7D0A64-7D7C-4C5A-93A3-DC26638005AE},,,JLAY,2022/08/03 14:55:10+00
-77.0294455807921,38.9292060284833,34,Tubman Elementary School,3101 13TH STREET NW,Elementary School,ES,Active,202-673-7285,542, ,dcps_328,http://profiles.dcps.dc.gov/tubman,328,328,N,607,1970,66600,450,-77.0294433,38.92919857,2022-2023,District of Columbia Public Schools,1,Tubman Elementary School,328,PK3-5th,294555,397447.02,140146.96,20010,39,34,,DGS_0471.0,{C7F9D178-A402-4A20-8D96-8804AF645C8E},,,JLAY,2022/08/03 14:55:10+00
-77.1005296227178,38.9268092935177,35,Key Elementary School,5001 DANA PLACE NW,Elementary School,ES,Active,202-729-3280,397, ,dcps_272,http://keyschooldc.org/dcps/,272,272,N,,1929,,,-77.10052732,38.92680184,2022-2023,District of Columbia Public Schools,1,Key Elementary School,272,PK4-5th,294605,391283.15,139885.29,20016,,41,,DGS_0653.0,{271ACEB2-78F4-4C90-8C74-F1A8400F1767},,,JLAY,2022/08/03 14:55:10+00
-76.9918451552813,38.9251854394973,36,Noyes Elementary School,2725 10TH STREET NE,Elementary School,ES,Active,202-281-2580,197, ,dcps_290,http://profiles.dcps.dc.gov/Noyes+Elementary+School,290,290,N,,,,,-76.99184288,38.92517798,2022-2023,District of Columbia Public Schools,1,Noyes Elementary School,290,PK3-5th,289594,400707.33,139700.26,20018,18,17,,DGS_0444.0,{E289F443-CF84-4A49-8E17-6BD94D9A4AC2},,,JLAY,2022/08/03 14:55:10+00
-76.9770841211669,38.9247116217499,37,Langdon Elementary School,1900 EVARTS STREET NE,Elementary School,ES,Active,202-576-6048,323, ,dcps_262,http://profiles.dcps.dc.gov/Langdon+Elementary+School,262,262,N,528,1930,101400,450,-76.97708185,38.92470416,2022-2023,District of Columbia Public Schools,1,Langdon Elementary School,262,PK3-5th,294532,401987.32,139647.88,20018,35,38,,DGS_0786.0,{C1710B59-8F1A-40DE-B0BF-FD581C9BDEE3},,,JLAY,2022/08/03 14:55:10+00
-77.0388128697178,38.9239505430781,38,H.D. Cooke Elementary School,2525 17TH STREET NW,Elementary School,ES,Active,202-939-5390,420, ,dcps_227,http://www.hdcookeschool.org/,227,227,N,,,,,-77.03881058,38.92394309,2022-2023,District of Columbia Public Schools,1,H.D. Cooke Elementary School,227,PK3-5th,235863,396634.55,139563.86,20009,25,54,,DGS_0430.0,{63EC1F2E-6024-46B0-BF15-4DF858F198E6},,,JLAY,2022/08/03 14:55:10+00
-77.0251232747312,38.912155806699,39,Benjamin Banneker High School,1600 9TH STREET NW,High School/Specialized,HS,Active,202-671-6320,482, ,dcps_402,http://www.benjaminbanneker.org/,402,402,N,620,1939,180000,500,-77.025121,38.912148,2022-2023,District of Columbia Public Schools,1,Benjamin Banneker High School,402,9th-12th,334680,397821.28,138254.13,20001,,,,DGS_0737.0,{496D3ECE-74C5-473E-A5CD-28F5340B2F27},,,JLAY,2022/08/03 14:55:10+00
-77.0572056640618,38.9236032828692,40,Oyster-Adams Bilingual School (Oyster),2801 CALVERT STREET NW,Elementary School,ES,Active,202-671-6130,674, ,dcps_292,http://oysteradamsbilingual.org/,292,292,N,,,,,-77.05720337,38.92359583,2022-2023,District of Columbia Public Schools,1,Oyster-Adams Bilingual School,292,PK4-3rd,275944,395039.6,139526.15,20008,6,34,,DGS_0446.0,{846BE86E-65BC-40DE-AB8A-296C8CF9F47C},,,JLAY,2022/08/03 14:55:10+00
-77.0790760942629,38.9230521025976,41,Stoddert Elementary School,4001 CALVERT STREET NW,Elementary School,ES,Active,202-671-6030,435, ,dcps_321,http://www.stoddert.org,321,321,N,213,1932,17400,325,-77.0790738,38.92304465,2022-2023,District of Columbia Public Schools,1,Stoddert Elementary School,321,PK4-5th,224730,393143.05,139466.38,20007,,20,,DGS_0578.0,{7F75C7B2-E813-46A0-A21E-10AA02B0DE9A},,,JLAY,2022/08/03 14:55:10+00
-77.0284730757523,38.9221799883401,42,Cardozo Education Campus,1200 CLIFTON STREET NW,Middle School/High School,HS,Active,202-673-7385,797, ,dcps_454,http://www.cardozohs.com/,454,454,N,1565,1926,355400,1100,-77.02847069,38.92217286,2022-2023,District of Columbia Public Schools,1,Cardozo Education Campus,454,6th-12th,294513,397531.11,139367.02,20009,,,20,DGS_0178.0,{F41E721C-83CC-4834-A31B-5BBC9B1C77A2},,,JLAY,2022/08/03 14:55:10+00
-77.0408175346784,38.9191144700188,43,Marie Reed Elementary School,2201 18TH STREET NW,Elementary School,ES,Active,202-673-7308,398, ,dcps_284,http://mariereedes.org/,284,284,N,,,,,-77.040822,38.919112,2022-2023,District of Columbia Public Schools,1,Marie Reed Elementary School,284,PK3-5th,310614,396459.87,139027.66,20009,46,54,,DGS_0396.2,{E365174C-5AE2-4E24-98BC-EE43F51D3DFA},,,JLAY,2022/08/03 14:55:10+00
-77.025750688452,38.9175525644243,44,Shaw Middle School,2001 10TH STREET NW,Middle School,MS,Not Open,202-673-7329,,,dcps_971,http://dcatlas.dcgis.dc.gov/schoolprofile/schools.aspx,0,,,,,,,-77.02574879,38.91754511,2022-2023,District of Columbia Public Schools,1,Shaw Middle School,0, ,294533,397767,138853.23,20001,,,,N/A,{95207105-F46A-48E7-83F3-A6B98917381E},,,JLAY,2022/08/03 14:55:10+00
-77.0443795373944,38.9173169912349,45,Oyster-Adams Bilingual School (Adams),2020 19TH STREET NW,Middle School,MS,Active,202-673-7311,674, ,dcps_949,http://oysteradamsbilingual.org/,201,292,N,,,,,-77.04437725,38.91730954,2022-2023,"District of Columbia Public Schools
",1,Oyster-Adams Bilingual School,201,4th-8th,294534,396151.48,138827.7,20009,6,34,,DGS_0380.0,{82297D97-48C0-493B-AB34-7F215A103DA6},,,JLAY,2022/08/03 14:55:10+00
-77.0686161905959,38.9155164871839,46,Fillmore Arts Center (West),1819 35TH STREET NW,Specialized School,AC,Active,202-729-3796,374, ,dcps_923,http://www.fillmoreartscenter.org/,0,0,N,,,,,-77.0686139,38.91550903,2022-2023,District of Columbia Public Schools,1,Hardy Middle School,0,6th-8th,274432,394049.46,138629.13,20007,,,,N/A,{A5107DAE-7D00-48D5-8964-62773F554118},,,JLAY,2022/08/03 14:55:10+00
-77.0686161905959,38.9155164871839,47,Hardy Middle School,1819 35TH STREET NW,Middle School,MS,Active,202-729-4350,374, ,dcps_246,http://www.hardyms.org,246,246,Y,,,,,-77.0686139,38.91550903,2022-2023,District of Columbia Public Schools,1,Hardy Middle School,246,6th-8th,274432,394049.46,138629.13,20007,,,,DGS_0355.0,{DB06915D-9181-4503-8FE1-974CA41C27A6},,,JLAY,2022/08/03 14:55:10+00
-77.0041247132797,38.9152275759532,48,McKinley Technology High School,151 T STREET NE,High School/Specialized,HS,Active,202-281-3950,213, ,dcps_458,http://mckinleytech.org/,458,458,N,,,,,-77.00412244,38.91522012,2022-2023,District of Columbia Public Schools,1,McKinley Technology High School,458,9th-12th,296345,399642.48,138594.83,20002,,,,DGS_0283.0,{78BA953E-AB8F-4EEC-BFBB-FFE937AE72C7},,,JLAY,2022/08/03 14:55:10+00
-77.0048844675793,38.9152178897153,49,McKinley Middle School,151 T STREET NE,Middle School,MS,Active,202-281-3950,213, ,dcps_970,http://profiles.dcps.dc.gov/McKinley+Middle+School,435,458,N,,,,,-77.00412244,38.91522012,2022-2023,District of Columbia Public Schools,1,McKinley Middle School,435,6th-8th,296345,399642.48,138594.83,20002,,,,DGS_0283.0,{C4142AFB-848F-4B83-9A54-EEF2100028D0},,,JLAY,2022/08/03 14:55:10+00
-77.0058926695347,38.915170351259,50,Langley Elementary School,101 T STREET NE,Elementary School,ES,Active,202-576-6034,284, ,dcps_965,http://www.langleyelementary.org/,370,0,N,,,,,-77.00588662,38.91516879,2022-2023,District of Columbia Public Schools,1,Langley Elementary School,370,PK3-5th,285757,399489.48,138589.14,20002,23,38,,DGS_0210.0,{60983B6D-FE7F-4D89-8053-F4DD87DA0EEF},,,JLAY,2022/08/03 14:55:10+00
-77.0227094560451,38.9151527443805,51,Cleveland Elementary School,1825 8TH STREET NW,Elementary School,ES,Active,202-939-4380,321, ,dcps_224,http://clevelandesdc.org/,224,224,N,,1911,54427,276,-77.02270718,38.91514529,2022-2023,District of Columbia Public Schools,1,Cleveland Elementary School,224,PK3-5th,294531,398030.71,138586.76,20001,38,37,,DGS_0357.0,{4836AAAF-AE44-44EA-A2C4-35C474536B3C},,,JLAY,2022/08/03 14:55:10+00
-77.0286148379241,38.9139087472585,52,Garrison Elementary School,1200 S STREET NW,Elementary School,ES,Active,202-673-7263,253, ,dcps_239,http://www.garrisonelementary.org/,239,239,N,474,1964,60200,325,-77.02861256,38.91390129,2022-2023,District of Columbia Public Schools,1,Garrison Elementary School,239,PK3-5th,294509,397518.52,138448.81,20009,44,44,,DGS_0242.0,{8D974A09-9739-4281-8B73-971E39059655},,,JLAY,2022/08/03 14:55:10+00
-77.0703098743125,38.9134538317844,53,Duke Ellington School of the Arts,3500 R STREET NW,High School/Specialized,HS,Active,202-282-0123,537, ,dcps_471,http://www.ellingtonschool.org,471,471,N,500,1898,167500,700,-77.070308,38.913446,2022-2023,District of Columbia Public Schools,1,Duke Ellington School of the Arts,471,9th-12th,242979,393902.4,138400.27,20007,,,,DGS_0526.0,{A65AEB94-61B2-4566-9F63-6B25109B3070},,,JLAY,2022/08/03 14:55:10+00
-77.0396644298109,38.912398603598,54,Ross Elementary School,1730 R STREET NW,Elementary School,ES,Active,202-673-7200,171, ,dcps_305,http://www.rosselementary.org/,305,305,N,,,,,-77.03966214,38.91239115,2022-2023,District of Columbia Public Schools,1,Ross Elementary School,305,PK3-5th,241714,396560.15,138281.53,20009,14,20,,DGS_0340.0,{A9DCADC8-819F-4D1C-814D-EA795DDD8342},,,JLAY,2022/08/03 14:55:10+00
-76.988588107557,38.9121470509132,55,Youth Services Center,1000 MOUNT OLIVET ROAD NE,Youth Engagement,YE,Active,202-576-8388,88, ,dcps_948,http://profiles.dcps.dc.gov/Youth+Services+Center,861, ,N,90,2004,,,-76.98858584,38.91213959,2022-2023,District of Columbia Public Schools,1,Youth Services Center,861,Alternative,290013,400989.94,138252.92,20002,,,1,N/A,{10928739-F54F-46D5-9084-05585905E4D6},,,JLAY,2022/08/03 14:55:10+00
-77.024884746941,38.9106261511799,56,Seaton Elementary School,1503 10TH STREET NW,Elementary School,ES,Active,202-673-7215,341, ,dcps_309,http://seatondc.org/,309,309,N,428,1969,65000,325,-77.02488247,38.9106187,2022-2023,District of Columbia Public Schools,1,Seaton Elementary School,309,PK3-5th,279203,397841.92,138084.32,20001,42,55,,DGS_0177.0,{ACE5DDF1-36E4-4668-A633-4943B9AB9DC8},,,JLAY,2022/08/03 14:55:10+00
-77.0645401573867,38.9080270930018,57,Hyde-Addison Elementary School,3219 O STREET NW,Elementary School,ES,Active,202-282-0170,329,   0830,dcps_252,http://profiles.dcps.dc.gov/Hyde-Addison+Elementary+School,252,,,,,,,-77.064538,38.90802,2022-2023,District of Columbia Public Schools,1,Hyde-Addison Elementary School,252,PK3-5th,294558,394402.37,137797.48,20007,16,40,,DGS_0427.0,{AE1555D6-9EC3-4F1E-B2CE-3106DB093587},,,JLAY,2022/08/03 14:55:10+00
-77.0126937526778,38.9076340080213,58,Dunbar High School,101 N ST NW,High School,HS,Active,202-698-3762,584, ,dcps_467,http://www.dunbarhsdc.org/,467,940,N,1095,1977,343400,1600,-77.012691,38.907627,2022-2023,District of Columbia Public Schools,1,Dunbar High School,467,9th-12th,309947,398899.21,137751.95,20001,,,2,DGS_0272.0,{63B9BEA5-3DB9-4C9A-993A-E15E688FFB02},,,JLAY,2022/08/03 14:55:10+00
-77.0523232854565,38.9074769554807,59,School Without Walls @ Francis-Stevens,2425 N STREET NW,Education Campus,EC,Active,202-724-4841,471, ,dcps_409,http://www.swwfs.org/,409,409,N,520,1927,95100,450,-77.052321,38.9074695,2022-2023,District of Columbia Public Schools,1,School Without Walls @ Francis-Stevens,409,PK3-8th,294544,395461.95,137735.74,20037,38,45,,DGS_0420.0,{684115BD-E4B9-4EB5-8BE0-6A77D957820D},,,JLAY,2022/08/03 14:55:10+00
-76.9327066350747,38.9065616039476,60,Ron Brown College Preparatory High School,4800 MEADE STREET NE,High School/Specialized,HS,Active,202-729-4343,105,,dcps_980,http://profiles.dcps.dc.gov/Ron+Brown+College+Preparatory+High+School,436,,,,,,,-76.932705,38.906563,2022-2023,District of Columbia Public Schools,1,Ron Brown College Preparatory High School,436,9th-11th,294601,405836.91,137635.93,20019,,,,DGS_0637.0,{40E2BBF6-0664-414D-95D8-7FF31ABFD7D3},,,JLAY,2022/08/03 14:55:10+00
-76.9299498970813,38.9054227781707,61,Houston Elementary School,1100 50TH PLACE NE,Elementary School,ES,Active,202-671-6170,299, ,dcps_251,http://www.myschooldc.org/schools/profile/44/,251,251,N,507,1962,59900,325,-76.92994765,38.90541532,2022-2023,District of Columbia Public Schools,1,Houston Elementary School,251,PK3-5th,156316,406076.15,137508.74,20019,30,35,,DGS_0219.0,{E12ED7DC-5645-416D-AE85-FF4105B274A9},,,JLAY,2022/08/03 14:55:10+00
-77.0139181418983,38.9041995429169,62,Walker-Jones Education Campus,1125 NEW JERSEY AVENUE NW,Education Campus,EC,Active,202-939-5934,451, ,dcps_332,http://walkerjoneseducampus.org/,332,332,N,,,,,-77.01391569,38.90419198,2022-2023,District of Columbia Public Schools,1,Walker-Jones Education Campus,332,PK3-8th,307735,398792.97,137370.7,20001,39,40,,DGS_0195.0,{E7331624-0234-4113-A536-2DED24F88A6B},,,JLAY,2022/08/03 14:55:10+00
-76.9885030395345,38.9041251995314,63,Wheatley Education Campus,1299 NEAL STREET NE,Education Campus,EC,Active,202-939-5970,321, ,dcps_335,http://profiles.dcps.dc.gov/Wheatley+Education+Campus,335,335,N,625,1960,103700,400,-76.98850077,38.90411774,2022-2023,District of Columbia Public Schools,1,Wheatley Education Campus,335,PK3-8th,294512,400997.43,137362.43,20002,24,33,,DGS_0262.0,{135BB52E-F95D-4935-AC5C-BB7C670AEB7D},,,JLAY,2022/08/03 14:55:10+00
-77.0284323136688,38.9035037912,64,Thomson Elementary School,1200 L STREET NW,Elementary School,ES,Active,202-898-4660,314, ,dcps_326,http://www.thomsondcps.org/,326,326,N,,,,,-77.02843003,38.90349634,2022-2023,District of Columbia Public Schools,1,Thomson Elementary School,326,PK3-5th,240922,397533.99,137293.77,20005,35,30,,DGS_0241.0,{D8080353-5FC0-458B-A778-0D5D720768A5},,,JLAY,2022/08/03 14:55:10+00
-77.0468343051292,38.903170049127,65,Stevens Early Learning Center,1050 21ST STREET NW,Specialized School,AC,Active,202-698-0677,,,dcps_983,https://www.myschooldc.org/schools/profile/432,,,,,,,,-77.046832,38.903163,2022-2023,District of Columbia Public Schools,1,Stevens Early Learning Center,0,PK3-PK4,294506,395937.79,137257.38,20036,,,,N/A,{84BD4569-D108-4C55-A020-7E54AE2EE0E8},,,JLAY,2022/08/03 14:55:10+00
-76.9965912928373,38.9027654537884,66,J.O. Wilson Elementary School,660 K STREET NE,Elementary School,ES,Active,202-698-4733,495, ,dcps_339,http://profiles.dcps.dc.gov/J.O.+Wilson+Elementary+School,339,339,N,412,1961,98900,400,-76.99658902,38.902758,2022-2023,District of Columbia Public Schools,1,J.O. Wilson Elementary School,339,PK3-5th,288841,400295.87,137211.43,20002,56,61,,DGS_0695.0,{397F1443-B19F-404E-BFFF-862924FA7810},,,JLAY,2022/08/03 14:55:10+00
-76.97066932127,38.902606337899,67,Browne Education Campus,850 26TH STREET NE,Education Campus,EC,Active,202-671-6210,309, ,dcps_404,http://profiles.dcps.dc.gov/Browne+Education+Campus,404,404,Y,835,1932,215400,750,-76.97066706,38.90259888,2022-2023,District of Columbia Public Schools,1,Browne Education Campus,404,PK3-8th,294501,402544.36,137194.17,20002,30,35,,DGS_0422.0,{0B60A0E0-2576-4152-AE38-907E043A52FC},,,JLAY,2022/08/03 14:55:10+00
-76.9718998943173,38.9019994770801,68,"Phelps Architecture, Construction, and Engineering High School",704 26TH STREET NE,High School/Specialized,HS,Active,202-729-4360,328, ,dcps_478,http://phelpshsdc.org/,478, ,N,,1912,205776,600,-76.97189763,38.90199202,2022-2023,District of Columbia Public Schools,1,"Phelps Architecture, Construction and Engineering High School",478,9th-12th,294495,402437.64,137126.77,20002,,,,DGS_0725.0,{AE884B5F-F32B-4051-984A-9195122B9562},,,JLAY,2022/08/03 14:55:10+00
-76.9521131682574,38.9012864269031,69,Thomas Elementary School,650 ANACOSTIA AVENUE NE,Elementary School,ES,Active,202-724-4593,409, ,dcps_325,http://www.nevalthomas.org/,325,325,N,636,1946,87600,325,-76.95211091,38.90127897,2022-2023,District of Columbia Public Schools,1,Thomas Elementary School,325,PK3-5th,294493,404154.01,137048.33,20019,39,40,,DGS_0719.0,{5E363B29-C2BA-4564-9A03-966C9C034858},,,JLAY,2022/08/03 14:55:10+00
-76.9244614283229,38.9005732220478,70,Burrville Elementary School,801 DIVISION AVENUE NE,Elementary School,ES,Active,202-671-6020,325, ,dcps_221,http://www.burrvillees.org/,221,221,N,322,1980,95000,450,-76.92445918,38.90056577,2022-2023,District of Columbia Public Schools,1,Burrville Elementary School,221,PK3-5th,289787,406552.65,136970.78,20019,36,56,,DGS_0740.0,{2D1B8926-EF5C-4570-98F7-9B8D217F8D16},,,JLAY,2022/08/03 14:55:10+00
-76.9964947646537,38.8987515963816,71,Ludlow-Taylor Elementary School,659 G STREET NE,Elementary School,ES,Active,202-698-3244,373, ,dcps_271,http://www.ludlowtaylor.org,271,271,N,,,,,-76.99649249,38.89874414,2022-2023,District of Columbia Public Schools,1,Ludlow-Taylor Elementary School,271,PK3-5th,294494,400304.26,136765.86,20002,43,57,,DGS_0721.0,{01EDBBDB-8044-46E2-A7E3-A8EC7774FDEE},,,JLAY,2022/08/03 14:55:10+00
-77.0025649717603,38.8985377621774,72,Capitol Hill Montessori,215 G STREET NE,Elementary School/Specialized,ES,Active,202-698-4467,361, ,dcps_960,http://capitolhillmontessorischool.org/,360,0,N,,,,,-77.00256647,38.89853031,2022-2023,District of Columbia Public Schools,1,Capitol Hill Montessori School @ Logan,360,PK3-8th,286687,399777.37,136742.12,20002,57,60,,DGS_0457.0,{10688A22-9D60-4BDC-AFFA-5AF88A906057},,,JLAY,2022/08/03 14:55:10+00
-77.0481887525381,38.8981315726761,73,School Without Walls High School,2130 G STREET NW,High School/Specialized,HS,Active,202-645-9690,585, ,dcps_466,http://www.swwhs.org/,466,466,N,,1935,47200,,-77.04818647,38.89812412,2022-2023,District of Columbia Public Schools,1,School Without Walls High School,466,9th-12th,242528,395820.01,136698.13,20037,,,,DGS_0388.0,{CCB15CC9-1FDB-421E-A9EC-D3F4EC2E76D7},,,JLAY,2022/08/03 14:55:10+00
-76.9931852940978,38.8975724536931,74,School-Within-School,920 F STREET NE,Elementary School/Specialized,ES,Active,202-673-8275,,,dcps_201,http://www.schoolwithinschool.org,175,,N,,,,,-76.99318304,38.89756498,2022-2023,District of Columbia Public Schools,1,School-Within-School @ Goding,175,PK3-5th,289072,400591.35,136634.98,20002,,,,DGS_0762.0,{94196A3E-B6EE-478B-9405-6704552BA36D},,,JLAY,2022/08/03 14:55:10+00
-76.9829065853773,38.8973834695648,75,Miner Elementary School,601 15TH STREET NE,Elementary School,ES,Active,202-397-3960,384, ,dcps_280,http://www.minerelementary.org/,280,280,N,,,,,-76.98290432,38.89737602,2022-2023,District of Columbia Public Schools,1,Miner Elementary School,280,PK3-5th,289548,401483,136614.12,20002,46,47,,DGS_0696.0,{1814C10A-9979-44AE-BE0E-85CFAA3C9918},,,JLAY,2022/08/03 14:55:10+00
-76.9337031672977,38.89700926754,76,Lorraine H. Witlock Elementary School,533 48TH PLACE NE,Elementary School,ES,Active,202-671-6060,251, ,dcps_202,http://profiles.dcps.dc.gov/Aiton+Elementary+School,202,202,N,479,1960,57100,400,-76.93370092,38.89700181,2022-2023,District of Columbia Public Schools,1,Aiton Elementary School,202,PK3-5th,294490,405751.28,136574.53,20019,25,43,,DGS_0669.0,{A5039B6B-02CC-4771-A80D-D35213EA87D0},,,JLAY,2022/08/03 14:55:10+00
-76.9223243859153,38.8967906132912,77,Woodson High School,540 55TH STREET NE,High School,HS,Active,202-724-4632,634, ,dcps_426,http://www.hdwoodsonwarriors.org/,464,425,N,1085,1967,156000,450,-76.92232826,38.89678662,2022-2023,District of Columbia Public Schools,1,H.D. Woodson High School,464,9th-12th,309633,406737.85,136551.42,20016,,,8,DGS_0681.0,{B1DF24CC-7907-4FA8-A83E-2307E28DBFE8},,,JLAY,2022/08/03 14:55:10+00
-77.0000066522715,38.8963051573376,78,Stuart-Hobson Middle School,410 E STREET NE,Middle School,MS,Active,202-671-6010,431, ,dcps_428,http://www.capitolhillclusterschool.org/our-schools/stuart-hobson-middle-school,428,428,Y,460,1927,105900,450,-77.00000438,38.8962977,2022-2023,District of Columbia Public Schools,1,Stuart-Hobson Middle School (Capitol Hill Cluster),428,6th-8th,294483,399999.62,136494.28,20002,,,,DGS_0576.0,{C99C7FBB-BB7C-4E72-A5D3-D7936B39B1C2},,,JLAY,2022/08/03 14:55:10+00
-76.9199292547491,38.8960014304797,79,Drew Elementary School,5600 EADS STREET NE,Elementary School,ES,Active,202-671-6040,253, ,dcps_231,http://www.drewelementary.org/,231,231,N,,,,,-76.91992701,38.89599397,2022-2023,District of Columbia Public Schools,1,Drew Elementary School,231,PK3-5th,277686,406946.23,136463.61,20019,18,32,,DGS_0687.0,{05097567-9791-4D1A-B9C6-4F2A5A724183},,,JLAY,2022/08/03 14:55:10+00
-76.958966127105,38.8952492870854,80,River Terrace Education Campus,405 Anacostia Ave NE,Special Education,EC,Active,202-442-7111,131, 0005,dcps_978,http://profiles.dcps.dc.gov/River+Terrace+Education+Campus,304,,,,,,,-76.95896387,38.8952415,2022-2023,District of Columbia Public Schools,1,River Terrace Education Campus,304,SPED,313230,403559.87,136377.87,20019,,,82,DGS_0184.0,{4D2195AF-BE6F-4D80-A36A-758D9559394A},,,JLAY,2022/08/03 14:55:10+00
-76.9384708912366,38.893561490088,81,Smothers Elementary School,4400 BROOKS STREET NE,Elementary School,ES,Active,202-939-3600,253, ,dcps_322,http://www.myschooldc.org/schools/profile/104/,322,322,N,332,1923,43000,325,-76.93846864,38.89355404,2022-2023,District of Columbia Public Schools,1,Smothers Elementary School,322,PK3-5th,294596,405337.95,136191.51,20019,31,39,,DGS_0612.0,{3E76AB1F-9C7B-4A04-9407-7BCB482BD2BC},,,JLAY,2022/08/03 14:55:10+00
-76.9324573183586,38.8933228241185,82,Kelly Miller Middle School,301 49TH STREET NE,Middle School,MS,Active,202-388-6870,449, ,dcps_421,http://kellymillerms.org/,421,421,Y,,,,,-76.93245515,38.89331541,2022-2023,District of Columbia Public Schools,1,Kelly Miller Middle School,421,6th-8th,294476,405859.65,136165.39,20019,,,,DGS_0462.0,{27050C3A-6579-41FF-B505-6E81CE245127},,,JLAY,2022/08/03 14:55:10+00
-76.99986025834,38.892903777306,83,Peabody Elementary School,425 C STREET NE,Elementary School,ES,Active,202-698-3277,231, ,dcps_301,http://profiles.dcps.dc.gov/Peabody+Elementary+School+(Capitol+Hill+Cluster),301,301,N,,,,,-76.99985799,38.89289632,2022-2023,District of Columbia Public Schools,1,Peabody Elementary School (Capitol Hill Cluster),301,PK3-KG,288145,400012.32,136116.7,20002,61,80,,DGS_0595.0,{AC6B9E54-50EC-4B7B-A7CC-F8D278D81268},,,JLAY,2022/08/03 14:55:10+00
-76.9789801842028,38.8924389462972,84,Eliot-Hine Middle School,1830 CONSTITUTION AVENUE NE,Middle School,MS,Active,202-939-5380,200, ,dcps_407,http://www.eliothinemiddleschool.org/,407,407,Y,850,1931,155100,450,-76.97897792,38.89243149,2022-2023,District of Columbia Public Schools,1,Eliot-Hine Middle School,407,6th-8th,286499,401823.73,136065.31,20002,,,,DGS_0359.0,{D045C0AD-8FCB-4323-A618-C28FB0D61C80},,,JLAY,2022/08/03 14:55:10+00
-76.9890008581543,38.8922946631179,85,Maury Elementary School,1250 CONSTITUTION AVENUE NE,Elementary School,ES,Active,202-698-3838,387, ,dcps_274,http://www.mauryelementary.com,274,274,N,276,1886,46800,325,-76.988999,38.892287,2022-2023,District of Columbia Public Schools,1,Maury Elementary School,274,PK3-5th,294511,400954.41,136049.14,20002,39,47,,DGS_0258.0,{ED10E5D9-AF28-41BA-A070-4A836352B0D9},,,JLAY,2022/08/03 14:55:10+00
-76.9796865584152,38.8904101151262,86,Eastern High School,1700 EAST CAPITOL STREET NE,High School,HS,Active,202-698-4500,818, ,dcps_457,http://easternhighschooldc.org/intro/,457,457,N,1425,1923,288800,6,-76.97968429,38.89040266,2022-2023,District of Columbia Public Schools,1,Eastern High School,457,9th-12th,289529,401762.5,135840.08,20003,,,28,DGS_0181.0,{EBB8773E-6976-4142-A756-E883536B91CA},,,JLAY,2022/08/03 14:55:10+00
-76.9399369281301,38.8872476506276,87,Plummer Elementary School,4601 TEXAS AVENUE SE,Elementary School,ES,Active,202-939-4360,391, ,dcps_299,http://profiles.dcps.dc.gov/Plummer+Elementary+School,299,299,N,,,,,-76.93993468,38.8872402,2022-2023,District of Columbia Public Schools,1,Plummer Elementary School,299,PK3-5th,19536,405211.23,135490.54,20019,26,38,,DGS_0202.0,{E836D3DB-1F7E-4189-BEB8-273CB1F4445C},,,JLAY,2022/08/03 14:55:10+00
-76.930798754934,38.885961872242,88,Nalle Elementary School,219 50TH STREET SE,Elementary School,ES,Active,202-671-6280,391, ,dcps_288,http://profiles.dcps.dc.gov/Nalle+Elementary+School,288,288,N,460,1950,83900,400,-76.93079651,38.88595442,2022-2023,District of Columbia Public Schools,1,Nalle Elementary School,288,PK3-5th,294474,406004.16,135348.37,20019,49,55,,DGS_0394.0,{DB72B3C1-593E-483B-975E-A5A0A038BFFD},,,JLAY,2022/08/03 14:55:10+00
-76.9849748055924,38.8851789290052,89,Payne Elementary School,1445 C STREET SE,Elementary School,ES,Active,202-698-3262,300, ,dcps_295,http://paynedc.org/,295,295,N,438,1953,,,-76.984984,38.885171,2022-2023,District of Columbia Public Schools,1,Payne Elementary School,295,PK3-5th,289721,401302.84,135259.2,20003,28,36,,DGS_0466.0,{C04BD496-DE30-4218-967C-0771B438DC56},,,JLAY,2022/08/03 14:55:10+00
-77.0014621213977,38.8848086594862,90,Brent Elementary School,301 NORTH CAROLINA AVENUE SE,Elementary School,ES,Active,202-698-3363,404, ,dcps_212,http://brentelementary.org/,212,212,N,276,1968,47500,325,-77.00145985,38.88480121,2022-2023,District of Columbia Public Schools,1,Brent Elementary School,212,PK3-5th,294479,399873.34,135218.08,20003,31,36,,DGS_0504.0,{A86A201F-096E-45CA-BBDC-1A1880046E5F},,,JLAY,2022/08/03 14:55:10+00
-76.9531611016469,38.8839018623165,91,Sousa Middle School,3650 ELY PLACE SE,Middle School,MS,Active,202-729-3260,255, ,dcps_427,http://www.sousamiddleschool.org/,427,427,N,,,,,-76.95315884,38.88389441,2022-2023,District of Columbia Public Schools,1,Sousa Middle School,427,6th-8th,294584,404064.1,135118.46,20019,,,,DGS_0536.0,{9EA5312F-3D36-46C3-B6AC-1185F0332F80},,,JLAY,2022/08/03 14:55:10+00
-76.9261177474948,38.8836062845951,92,C.W. Harris Elementary School,301 53RD STREET SE,Elementary School,ES,Active,202-645-3188,285, ,dcps_247,http://cwharriselementary.org/,247,247,N,461,1964,56000,325,-76.9261155,38.88359883,2022-2023,District of Columbia Public Schools,1,C.W. Harris Elementary School,247,PK3-5th,289801,406410.5,135087.2,20019,19,37,,DGS_0455.0,{CB3ABF3A-492D-4E86-838B-30BFF85B100D},,,JLAY,2022/08/03 14:55:10+00
-76.9899990371998,38.8834744591012,93,Watkins Elementary School,420 12TH STREET SE,Elementary School,ES,Active,202-698-3355,436, ,dcps_333,http://www.capitolhillclusterschool.org/our-schools/watkins-elementary,333,333,N,578,1962,69300,550,-76.98999677,38.88346701,2022-2023,District of Columbia Public Schools,1,Watkins Elementary School (Capitol Hill Cluster),333,1st-5th,294486,400867.92,135070.02,20003,,,,DGS_0586.0,{52119D90-E2A6-4A3E-B42C-F487A1325B9F},,,JLAY,2022/08/03 14:55:10+00
-76.9763811799253,38.883438357611,94,Inspiring Youth Program,1901 D STREET SE,Youth Engagement,YE,Active,202-698-5978,,,dcps_947,http://profiles.dcps.dc.gov/Inspiring+Youth+Program,480, ,N,,,,,-76.97637892,38.88343091,2022-2023,District of Columbia Public Schools,1,Inspiring Youth Program,480,Alternative,295133,402049.46,135066.23,20003,,,,N/A,{A4CD825B-EBF6-451F-8F8E-E8923BACC432},,,JLAY,2022/08/03 14:55:10+00
-76.9571805468622,38.8833106531027,95,Kimball Elementary School,3375 MINNESOTA AVENUE SE,Elementary School,ES,Active,202-671-6260,313, 0831,dcps_259,http://profiles.dcps.dc.gov/Kimball+Elementary+School+%40+Davis,259,259,N,474,,,400,-76.957178,38.883303,2022-2023,District of Columbia Public Schools,1,Kimball Elementary School,259,PK3-5th,294565,403715.39,135052.66,20019,,,,DGS_0186.0,{D052A654-CFD2-4D9A-91D4-C07AB19F7E3A},,,JLAY,2022/08/03 14:55:10+00
-76.9920439309801,38.8810918074256,96,Tyler Elementary School,1001 G STREET SE,Elementary School,ES,Active,202-939-4810,514, ,dcps_330,http://www.tylerelementary.net,330,330,N,452,1949,69600,400,-76.99204166,38.88108436,2022-2023,District of Columbia Public Schools,1,Tyler Elementary School,330,PK3-5th,294505,400690.52,134805.51,20003,61,75,,DGS_0726.0,{2F5AFFF1-512D-41FB-8292-BC8468E122BA},,,JLAY,2022/08/03 14:55:10+00
-77.0229129382855,38.8798783817875,97,Jefferson Middle School Academy,801 7TH STREET SW,Middle School,MS,Active,202-729-3270,, ,dcps_415,http://www.jeffersontrojans.org/,433,415,Y,900,1940,109000,450,-77.02291066,38.87987093,2022-2023,District of Columbia Public Schools,1,AppleTree Early Learning Center PCS - Southwest,433,6th-8th,276812,398012.08,134671.03,20024,,,,DGS_0739.0,{C18E1BC5-5C01-4F9B-B3F9-0B707AC027B3},,,JLAY,2022/08/03 14:55:10+00
-77.0181275757119,38.8795228506534,98,Amidon-Bowen Elementary School,401 I STREET SW,Elementary School,ES,Active,202-724-4867,350, ,dcps_203,http://profiles.dcps.dc.gov/Amidon-Bowen+Elementary+School,203,203,N,438,1960,70800,400,-77.0181253,38.8795154,2022-2023,District of Columbia Public Schools,1,Amidon-Bowen Elementary School,203,PK3-5th,294482,398427.29,134631.47,20024,24,34,,DGS_0566.0,{D206321C-3DE4-42EB-8872-392A26C84155},,,JLAY,2022/08/03 14:55:10+00
-76.9376185478661,38.8790757454366,99,Bard High School Early College DC,4430 H STREET SE,High School/Specialized,HS,Active,202-898-4664,,,dcps_982,https://www.myschooldc.org/schools/profile/415,,,N,,,,,-76.937616,38.879068,2022-2023,District of Columbia Public Schools,1,Bard High School Early College DC,1058,9th-12th,294598,405412.99,134583.53,20019,,,,N/A,{CE9215D2-0074-4A06-AE64-6EEA2712553C},,,JLAY,2022/08/03 14:55:10+00
-76.9992457367057,38.876803557988,100,Van Ness Elementary School,1150 5TH STREET SE,Elementary School,ES,Active,202-698-3818,171,,dcps_972,http://vannesselementary.org/,331,,,,,,,-76.999244,38.87679645,2022-2023,District of Columbia Public Schools,1,Van Ness Elementary School,331,PK3-2nd,294508,400065.6,134329.49,20003,43,37,,DGS_0770.0,{BF208B16-B74C-4A4C-8313-22CCF8E3488E},,,JLAY,2022/08/03 14:55:10+00
-76.9744862796748,38.8718046065096,101,Boone Elementary School,2200 MINNESOTA AVENUE SE,Elementary School,ES,Active,202-671-6240,408, ,dcps_291,http://www.orrelementary.org/,291,291,N,,,,,-76.97448402,38.87179716,2022-2023,District of Columbia Public Schools,1,Orr Elementary School,291,PK3-5th,294539,402214.23,133774.84,20020,44,50,,DGS_0182.0,{AE0E4C67-726C-402D-8E3C-D0AFD964C083},,,JLAY,2022/08/03 14:55:10+00
-76.9801735687473,38.8712938528995,102,Kramer Middle School,1700 Q STREET SE,Middle School,MS,Active,202-939-3150,193, ,dcps_417,http://www.myschooldc.org/schools/profile/56/,417,417,N,655,1943,154000,550,-76.9801713,38.8712864,2022-2023,District of Columbia Public Schools,1,Kramer Middle School,417,6th-8th,289467,401720.71,133718.02,20020,,,,DGS_0332.0,{578B56BC-7456-499F-8DB1-AA01BB7C207D},,,JLAY,2022/08/03 14:55:10+00
-76.9643585423078,38.8700991857525,103,Randle Highlands Elementary School,1650 30TH STREET SE,Elementary School,ES,Active,202-729-3250,333, ,dcps_316,http://www.randlehighlandselementary.org/,316,316,N,520,2003,,,-76.96435628,38.87009174,2022-2023,District of Columbia Public Schools,1,Randle Highlands Elementary School,316,PK3-5th,156337,403093.17,133585.82,20020,34,43,,DGS_0803.0,{9407272E-7D8E-4652-8212-AF1B2402CD9D},,,JLAY,2022/08/03 14:55:10+00
-76.9830795189813,38.870091507624,104,Anacostia High School,1601 16TH STREET SE,High School,HS,Active,202-698-2155,449, ,dcps_450,http://profiles.dcps.dc.gov/anacostia,450,450,N,1040,1935,247900,1100,-76.98307725,38.87008406,2022-2023,District of Columbia Public Schools,1,Anacostia High School,450,9th-12th,155922,401468.56,133584.5,20020,,,3,DGS_0324.0,{4F5DF6F3-E4A0-4BA3-B91A-15F72DD67059},,,JLAY,2022/08/03 14:55:10+00
-76.9836234271726,38.8660501419335,105,Ketcham Elementary School,1919 15TH STREET SE,Elementary School,ES,Active,202-698-1122,309, ,dcps_257,http://profiles.dcps.dc.gov/Ketcham+Elementary+School,257,257,N,461,1909,88300,325,-76.98362116,38.86604269,2022-2023,District of Columbia Public Schools,1,Ketcham Elementary School,257,PK3-5th,286537,401421.44,133135.87,20020,29,40,,DGS_0364.0,{511D8E83-E446-4CAB-A716-5F64EFF41F7B},,,JLAY,2022/08/03 14:55:10+00
-76.9556070060376,38.8643572874249,106,Beers Elementary School,3600 ALABAMA AVENUE SE,Elementary School,ES,Active,202-939-4800,464, ,dcps_206,http://profiles.dcps.dc.gov/Beers+Elementary+School,206,206,N,448,1942,77500,400,-76.95560475,38.86434984,2022-2023,District of Columbia Public Schools,1,Beers Elementary School,206,PK3-5th,278406,403852.94,132948.76,20020,42,54,,DGS_0535.0,{3771BF6B-8F68-4C68-A9A4-80C6FE91EDCA},,,JLAY,2022/08/03 14:55:10+00
-76.9936065291188,38.862859433361,107,Savoy Elementary School,2400 SHANNON PLACE SE,Elementary School,ES,Active,202-939-2000,315, ,dcps_307,http://profiles.dcps.dc.gov/Savoy+Elementary+School,307,307,N,479,1968,64800,450,-76.99360426,38.86285199,2022-2023,District of Columbia Public Schools,1,Savoy Elementary School,307,PK3-5th,278153,400555.08,132781.57,20020,20,34,,DGS_0419.0,{FB790BD4-F499-4D16-BFFF-EBE1577BBE73},,,JLAY,2022/08/03 14:55:10+00
-76.9953568364176,38.859769537679,108,Excel Academy,2501 MARTIN LUTHER KING JR AVENUE SE,Education Campus,EC,Active,202-373-0097,,,dcps_981,http://www.excelpcs.org,318,,,,,,,-76.995355,38.859762,2022-2023,District of Columbia Public Schools,1,Excel Academy PCS,318,PK3-8th,278172,400403.19,132438.56,20020,,,,DGS_0782.0,{FBB40AA1-708E-4831-B94A-7883B78DB03F},,,JLAY,2022/08/03 14:55:10+00
-76.9684924865091,38.859279554949,109,Stanton Elementary School,2701 NAYLOR ROAD SE,Elementary School,ES,Active,202-671-6180,520, ,dcps_319,http://profiles.dcps.dc.gov/Stanton+Elementary+School,319,319,N,547,1944,83800,400,-76.96849023,38.85927211,2022-2023,District of Columbia Public Schools,1,Stanton Elementary School,319,PK3-5th,294547,402734.84,132384.63,20020,30,47,,DGS_0443.0,{E2947094-4E8B-441F-82D4-CD878777A2C9},,,JLAY,2022/08/03 14:55:10+00
-76.9829459217509,38.8566649731435,110,Moten Elementary School,1565 MORRIS ROAD SE,Elementary School,ES,Active,202-698-1111,405, ,dcps_920,http://www.myschooldc.org/schools/profile/75/,285,285A,N,,1976,144900,,-76.98294368,38.856656,2022-2023,District of Columbia Public Schools,1,Moten Elementary School,285,PK3-5th,294524,401480.43,132093.89,20020,37,45,,DGS_0323.0,{E37EAD61-F7DD-4992-A7D7-06550CCC7723},,,JLAY,2022/08/03 14:55:10+00
-76.9708070368325,38.8517408214861,111,Garfield Elementary School,2435 ALABAMA AVENUE SE,Elementary School,ES,Active,202-671-6140,301, ,dcps_238,http://www.myschooldc.org/schools/profile/37/,238,238,N,446,1977,58908,400,-76.97080478,38.85173338,2022-2023,District of Columbia Public Schools,1,Garfield Elementary School,238,PK3-5th,278160,402534.22,131547.71,20020,22,32,,DGS_0421.0,{E1B5A20F-9FE2-4566-BAB2-100A44CEC74E},,,JLAY,2022/08/03 14:55:10+00
-76.9837059452072,38.8513443505593,112,Johnson Middle School,1400 BRUCE PLACE SE,Middle School,MS,Active,202-939-3140,252, ,dcps_416,http://profiles.dcps.dc.gov/Johnson+Middle+School,416,416,N,,1969,277000,,-76.98370368,38.85133691,2022-2023,District of Columbia Public Schools,1,Johnson Middle School,416,6th-8th,294520,401414.57,131503.42,20020,,,,DGS_0293.0,{37272D70-6493-4897-9609-BF92419D0A70},,,JLAY,2022/08/03 14:55:10+00
-76.9803121874691,38.8476427196735,113,Turner Elementary School,3264 STANTON ROAD SE,Elementary School,ES,Active,202-645-3470,484, ,dcps_329,http://www.myschooldc.org/schools/profile/116/,329,329,N,,1965,77700,,-76.98031323,38.84763644,2022-2023,District of Columbia Public Schools,1,Turner Elementary School,329,PK3-5th,294561,401708.96,131092.7,20032,34,49,,DGS_0499.0,{90D1A43D-F7AA-4E11-A63E-60F886551D8E},,,JLAY,2022/08/03 14:55:10+00
-76.998241258726,38.842450628512,114,King Elementary School,3200 6TH STREET SE,Elementary School,ES,Active,202-939-4900,374, ,dcps_344,http://profiles.dcps.dc.gov/King+Elementary+School,344,344,N,525,1971,65500,400,-76.99823899,38.84244319,2022-2023,District of Columbia Public Schools,1,King Elementary School,344,PK3-5th,294557,400152.88,130516.03,20032,26,51,,DGS_0481.0,{682827DC-0D16-4B25-99ED-9EB81471D0ED},,,JLAY,2022/08/03 14:55:10+00
-76.9834008359209,38.8416528356148,115,Malcolm X Elementary School @ Green,1500 MISSISSIPPI AVENUE SE,Elementary School,ES,Active,202-645-3409,237, ,dcps_308,http://profiles.dcps.dc.gov/Malcolm+X+Elementary+School+%40+Green,308,308,N,571,1973,110800,400,-76.98339857,38.8416454,2022-2023,District of Columbia Public Schools,1,Malcolm X Elementary School @ Green,308,PK3-5th,294523,401441.25,130427.6,20032,26,26,,DGS_0313.0,{592D9261-7979-45DA-A74D-1BBE3A8F5DBC},,,JLAY,2022/08/03 14:55:10+00
-77.0013647757232,38.8385194355978,116,Ballou High School,3401 4TH STREET SE,High School,HS,Active,202-645-3400,930, ,dcps_452,http://www.balloudc.org/,452,452,N,1565,1960,271300,1200,-77.0013625,38.83851166,2022-2023,District of Columbia Public Schools,1,Ballou High School,452,9th-12th,294567,399881.71,130079.64,20032,,,17,DGS_0519.0,{86163134-25D7-4940-A357-67C6423A680F},,,JLAY,2022/08/03 14:55:10+00
-77.0013647757232,38.8385194355978,117,Ballou STAY High School,3401 4TH STREET SE,Youth Engagement,STAY,Active,202-645-3390,930, ,dcps_914,http://www.balloustay.com/,462,452A,N,,,,,-77.0013625,38.83851166,2022-2023,District of Columbia Public Schools,1,Ballou High School,462,Adult,294567,399881.71,130079.64,20032,,,17,DGS_0519.0,{56A40347-7CBE-41DA-9581-42A861D7E6B0},,,JLAY,2022/08/03 14:55:10+00
-76.9971810142341,38.8377453130832,118,Hart Middle School,601 MISSISSIPPI AVENUE SE,Middle School,MS,Active,202-671-6426,349, ,dcps_413,http://www.charleshartmiddle.org/,413,413,Y,1110,1956,210700,550,-76.99717875,38.83773787,2022-2023,District of Columbia Public Schools,1,Hart Middle School,413,6th-8th,5534,400244.94,129993.71,20032,,,,DGS_0698.0,{5086F145-6422-4DAA-A692-413D8CEEE221},,,JLAY,2022/08/03 14:55:10+00
-77.0001972654854,38.8359879771748,119,Simon Elementary School,401 MISSISSIPPI AVENUE SE,Elementary School,ES,Active,202-645-3360,276, ,dcps_315,http://profiles.dcps.dc.gov/Simon+Elementary+School,315,315,N,549,1950,66200,325,-77.000195,38.83598054,2022-2023,District of Columbia Public Schools,1,Simon Elementary School,315,PK3-5th,294481,399983.07,129798.63,20032,19,28,,DGS_0568.0,{EBEA0840-9F56-46D7-B626-57BED34A6A12},,,JLAY,2022/08/03 14:55:10+00
-76.9991871134438,38.8289933534677,120,Hendley Elementary School,425 CHESAPEAKE STREET SE,Elementary School,ES,Active,202-645-3450,445, ,dcps_249,http://profiles.dcps.dc.gov/Hendley+Elementary+School,249,249,N,559,1959,73200,325,-76.99918485,38.82898591,2022-2023,District of Columbia Public Schools,1,Hendley Elementary School,249,PK3-5th,24445,400070.78,129022.18,20032,28,37,,DGS_0596.0,{A70492BA-4FD4-4C1A-9F1F-B7A461214745},,,JLAY,2022/08/03 14:55:10+00
-77.0128941847555,38.8282042225853,121,Leckie Education Campus,4201 MARTIN LUTHER KING JR AVENUE SW,Elementary School,ES,Active,202-645-3330,553, ,dcps_266,http://www.leckielionsdc.org/,266,266,N,471,1970,65000,400,-77.01289191,38.82819678,2022-2023,District of Columbia Public Schools,1,Leckie Education Campus,266,PK3-8th,294592,398880.58,128934.66,20032,45,57,,DGS_0593.0,{C02C450E-D153-42F6-A452-C46543453AEE},,,JLAY,2022/08/03 14:55:10+00
-77.008486979524,38.8269737991269,122,Patterson Elementary School,4399 SOUTH CAPITOL TERRACE SW,Elementary School,ES,Active,202-939-5280,394, ,dcps_294,http://www.myschooldc.org/schools/profile/82/,294,294,N,,2004,78300,368,-77.00848471,38.82696636,2022-2023,District of Columbia Public Schools,1,Patterson Elementary School,294,PK3-5th,301073,399263.25,128798.03,20032,34,44,,DGS_0608.0,{B54DDF50-D03C-42DA-9924-DCA6618B4B1D},,,JLAY,2022/08/03 14:55:10+00
-77.0323752850815,38.9622185969999,321,Military Road Early Learning Center,1375 MISSOURI AVENUE NW,Specialized School,AC,Active,202-671-6410,,PAR 00870536,dcps_984,https://profiles.dcps.dc.gov/Military+Road+Early+Learning+Center,,,Y,,,,,-77.032373,38.96223,2022-2023,District of Columbia Public Schools,1,Military Road Early Learning Center,0,PK3–PK4,284010,397194.29,143811.74,20011,,,,N/A,{37E303CC-3703-4AA1-92EF-081904D2847E},JLAY,2022/08/03 14:55:10+00,JLAY,2022/08/03 14:55:10+00
